[
		{
			"nombre": "MIGUEL ZAMORA",
			"latitud": -34.529648305283686,
			"longitud": -58.711538804489145
		},
		{
			"nombre": "MARTIN CAMPOY",
			"latitud": -34.513576075644664,
			"longitud": -58.68754071098584 
		},
		{
			"nombre": "MIGUEL LARREA",
			"latitud": -34.50040949989878,
			"longitud": -58.69752094322693
		},
		{ 
			"nombre": "VICTOR SOLANO",
			"latitud": -34.500834644814745,
			"longitud": -58.70756537993633
		},
		{
			"nombre": "SANTIAGO ALLENDE",
			"latitud": -34.49950110695363,
			"longitud": -58.71618153397614
		},
		{ 
			"nombre": "AITOR MOLANO",
			"latitud": -34.49608496158865,
			"longitud": -58.73636144500945
		},
		{ 
			"nombre": "JOSE COLL",
			"latitud": -34.507779293525914,
			"longitud": -58.75481164917968
		},
		{ 
			"nombre": "CARLOS LUQUE",
			"latitud": -34.515380885522134,
			"longitud": -58.783093870580544
		},
		{ 
			"nombre": "MARC CARRASCOSA",
			"latitud": -34.53238193620018,
			"longitud": -58.74813558892592
		},
		{ 
			"nombre": "MARTIN BORRAS",
			"latitud": -34.52908200373978,
			"longitud": -58.72458730212767
		},
		{ 
			"nombre": "JOAQUIN RICO",
			"latitud": -34.531281973250216,
			"longitud": -58.718639538378746
		},
		{ 
			"nombre": "ESTHER TORRE",
			"latitud": -34.53748157465222,
			"longitud": -58.70079624887111
		},
		{ 
			"nombre": "ROSA ZARATE",
			"latitud": -34.52548192836782,
			"longitud": -58.69399880529737
		},
		{ 
			"nombre": "DOLORES QUINTELA",
			"latitud": -34.54498047538861,
			"longitud": -58.69314912485065
		},
		{ 
			"nombre": "ISABEL ASENSI",
			"latitud": -34.55197884001891,
			"longitud": -58.713055923918276
		},
		{ 
			"nombre": "MARIA QUERO",
			"latitud": -34.50377817707159,
			"longitud": -58.68368125661954
		},
		{ 
			"nombre": "LAURA BOIX",
			"latitud": -34.51378060775974,
			"longitud": -58.70795784096556
		},
		{ 
			"nombre": "MARIA ROZAS",
			"latitud": -34.513380534018864,
			"longitud": -58.75541856395509
		},
		{ 
			"nombre": "CARLA VAQUERO",
			"latitud": -34.510980048423626,
			"longitud": -58.72956400165036
		},
		{ 
			"nombre": "MARIA VALLS",
			"latitud": -34.52978200024349,
			"longitud": -58.74667899386614
		}
		
]